[{"nombre":"BASE BELGRANO II","provincia":"ANTARTIDA","lat":-77.86667,"lon":-34.56667,"altura":256,"oaci":"SAYB"},{"nombre":"BASE CARLINI","provincia":"ANTARTIDA","lat":-62.23333,"lon":-58.63333,"altura":11,"oaci":"SAYJ"},{"nombre":"BASE ESPERANZA","provincia":"ANTARTIDA","lat":-63.4,"lon":-56.98333,"altura":24,"oaci":"SAYE"},{"nombre":"BASE MARAMBIO","provincia":"ANTARTIDA","lat":-64.23333,"lon":-56.71667,"altura":198,"oaci":"SAWB"},{"nombre":"BASE ORCADAS","provincia":"ANTARTIDA","lat":-60.75,"lon":-44.71667,"altura":12,"oaci":"SAYO"},{"nombre":"BASE SAN MARTIN","provincia":"ANTARTIDA","lat":-68.13333,"lon":-67.13333,"altura":7,"oaci":"SAYS"},{"nombre":"AZUL AERO","provincia":"BUENOS AIRES","lat":-36.83333,"lon":-59.88333,"altura":147,"oaci":"SAZA"},{"nombre":"BAHIA BLANCA AERO","provincia":"BUENOS AIRES","lat":-38.73333,"lon":-62.16667,"altura":83,"oaci":"SAZB"},{"nombre":"BENITO JUAREZ AERO","provincia":"BUENOS AIRES","lat":-37.71667,"lon":-59.78333,"altura":207,"oaci":"SAZJ"},{"nombre":"BOLIVAR AERO","provincia":"BUENOS AIRES","lat":-36.2,"lon":-61.06667,"altura":94,"oaci":"SAZI"},{"nombre":"CAMPO DE MAYO AERO","provincia":"BUENOS AIRES","lat":-34.53333,"lon":-58.66667,"altura":26,"oaci":"SADO"},{"nombre":"CORONEL PRINGLES AERO","provincia":"BUENOS AIRES","lat":-38.01667,"lon":-61.33333,"altura":247,"oaci":"SABP"},{"nombre":"CORONEL SUAREZ AERO","provincia":"BUENOS AIRES","lat":-37.43333,"lon":-61.88333,"altura":233,"oaci":"SAZC"},{"nombre":"DOLORES AERO","provincia":"BUENOS AIRES","lat":-36.35,"lon":-57.73333,"altura":9,"oaci":"SAZD"},{"nombre":"EL PALOMAR AERO","provincia":"BUENOS AIRES","lat":-34.6,"lon":-58.6,"altura":12,"oaci":"SADP"},{"nombre":"EZEIZA AERO","provincia":"BUENOS AIRES","lat":-34.81667,"lon":-58.53333,"altura":20,"oaci":"SAEZ"},{"nombre":"JUNIN AERO","provincia":"BUENOS AIRES","lat":-34.55,"lon":-60.91667,"altura":81,"oaci":"SAAJ"},{"nombre":"LA PLATA AERO","provincia":"BUENOS AIRES","lat":-34.96667,"lon":-57.9,"altura":23,"oaci":"SADL"},{"nombre":"LAS FLORES AERO","provincia":"BUENOS AIRES","lat":-36.03333,"lon":-59.13333,"altura":36,"oaci":"SAEL"},{"nombre":"MAR DEL PLATA AERO","provincia":"BUENOS AIRES","lat":-37.93333,"lon":-57.58333,"altura":21,"oaci":"SAZM"},{"nombre":"MARIANO MORENO AERO","provincia":"BUENOS AIRES","lat":-34.55,"lon":-58.81667,"altura":32,"oaci":"SADJ"},{"nombre":"MERLO AERO","provincia":"BUENOS AIRES","lat":-34.68333,"lon":-58.73333,"altura":36,"oaci":"SADR"},{"nombre":"MORON AERO","provincia":"BUENOS AIRES","lat":-34.66667,"lon":-58.63333,"altura":24,"oaci":"SADM"},{"nombre":"NUEVE DE JULIO","provincia":"BUENOS AIRES","lat":-35.45,"lon":-60.88333,"altura":76,"oaci":"SAZX"},{"nombre":"OLAVARRIA AERO","provincia":"BUENOS AIRES","lat":-36.88333,"lon":-60.21667,"altura":166,"oaci":"SAZF"},{"nombre":"PEHUAJO AERO","provincia":"BUENOS AIRES","lat":-35.86667,"lon":-61.9,"altura":87,"oaci":"SAZP"},{"nombre":"PIGUE AERO","provincia":"BUENOS AIRES","lat":-37.6,"lon":-62.38333,"altura":304,"oaci":"SAZE"},{"nombre":"PUNTA INDIO B.A.","provincia":"BUENOS AIRES","lat":-35.36667,"lon":-57.28333,"altura":22,"oaci":"SAAI"},{"nombre":"SAN FERNANDO","provincia":"BUENOS AIRES","lat":-34.45,"lon":-58.58333,"altura":3,"oaci":"SADF"},{"nombre":"SANTA TERESITA AERO","provincia":"BUENOS AIRES","lat":-36.55,"lon":-56.68333,"altura":4,"oaci":"SAZL"},{"nombre":"TANDIL AERO","provincia":"BUENOS AIRES","lat":-37.23333,"lon":-59.25,"altura":175,"oaci":"SAZT"},{"nombre":"TRENQUE LAUQUEN","provincia":"BUENOS AIRES","lat":-35.96667,"lon":-62.73333,"altura":95,"oaci":"SAET"},{"nombre":"TRES ARROYOS","provincia":"BUENOS AIRES","lat":-38.33333,"lon":-60.25,"altura":115,"oaci":"SAZH"},{"nombre":"VILLA GESELL AERO","provincia":"BUENOS AIRES","lat":-37.23333,"lon":-57.01667,"altura":9,"oaci":"SAZV"},{"nombre":"AEROPARQUE BUENOS AIRES AERO","provincia":"CAPITAL FEDERAL","lat":-34.56667,"lon":-58.41667,"altura":6,"oaci":"SABE"},{"nombre":"BUENOS AIRES","provincia":"CAPITAL FEDERAL","lat":-34.58333,"lon":-58.48333,"altura":25,"oaci":"SABA"},{"nombre":"CATAMARCA AERO","provincia":"CATAMARCA","lat":-28.6,"lon":-65.76667,"altura":454,"oaci":"SANC"},{"nombre":"TINOGASTA","provincia":"CATAMARCA","lat":-28.06667,"lon":-67.56667,"altura":1201,"oaci":"SANI"},{"nombre":"PCIA. ROQUE SAENZ PENA AERO","provincia":"CHACO","lat":-26.75,"lon":-60.4,"altura":93,"oaci":"SARS"},{"nombre":"RESISTENCIA AERO","provincia":"CHACO","lat":-27.45,"lon":-59.05,"altura":52,"oaci":"SARE"},{"nombre":"COMODORO RIVADAVIA AERO","provincia":"CHUBUT","lat":-45.78333,"lon":-67.5,"altura":46,"oaci":"SAVC"},{"nombre":"ESQUEL AERO","provincia":"CHUBUT","lat":-42.93333,"lon":-71.15,"altura":797,"oaci":"SAVE"},{"nombre":"PASO DE INDIOS","provincia":"CHUBUT","lat":-43.81667,"lon":-68.88333,"altura":460,"oaci":"SAVP"},{"nombre":"PUERTO MADRYN AERO","provincia":"CHUBUT","lat":-42.73333,"lon":-65.06667,"altura":136,"oaci":"SAVY"},{"nombre":"TRELEW AERO","provincia":"CHUBUT","lat":-43.2,"lon":-65.26667,"altura":43,"oaci":"SAVT"},{"nombre":"CORDOBA AERO","provincia":"CORDOBA","lat":-31.3,"lon":-64.2,"altura":495,"oaci":"SACO"},{"nombre":"CORDOBA OBSERVATORIO","provincia":"CORDOBA","lat":-31.4,"lon":-64.18333,"altura":425,"oaci":"SACK"},{"nombre":"ESC. AVIACION MILITAR AERO","provincia":"CORDOBA","lat":-31.45,"lon":-64.26667,"altura":502,"oaci":"SACE"},{"nombre":"LABOULAYE AERO","provincia":"CORDOBA","lat":-34.13333,"lon":-63.36667,"altura":137,"oaci":"SAOL"},{"nombre":"MARCOS JUAREZ AERO","provincia":"CORDOBA","lat":-32.7,"lon":-62.15,"altura":114,"oaci":"SAOM"},{"nombre":"PILAR OBS.","provincia":"CORDOBA","lat":-31.66667,"lon":-63.88333,"altura":338,"oaci":"SACI"},{"nombre":"RIO CUARTO AERO","provincia":"CORDOBA","lat":-33.11667,"lon":-64.23333,"altura":421,"oaci":"SAOC"},{"nombre":"VILLA DOLORES AERO","provincia":"CORDOBA","lat":-31.95,"lon":-65.13333,"altura":566,"oaci":"SAOD"},{"nombre":"VILLA MARIA DEL RIO SECO","provincia":"CORDOBA","lat":-29.9,"lon":-63.68333,"altura":341,"oaci":"SACV"},{"nombre":"CORRIENTES AERO","provincia":"CORRIENTES","lat":-27.45,"lon":-58.76667,"altura":62,"oaci":"SARC"},{"nombre":"ITUZAINGO","provincia":"CORRIENTES","lat":-27.58333,"lon":-56.66667,"altura":72,"oaci":"SARO"},{"nombre":"MERCEDES AERO","provincia":"CORRIENTES","lat":-29.21667,"lon":-58.1,"altura":107,"oaci":"SATM"},{"nombre":"MONTE CASEROS AERO","provincia":"CORRIENTES","lat":-30.26667,"lon":-57.65,"altura":54,"oaci":"SARM"},{"nombre":"PASO DE LOS LIBRES AERO","provincia":"CORRIENTES","lat":-29.68333,"lon":-57.15,"altura":70,"oaci":"SARL"},{"nombre":"CONCORDIA AERO","provincia":"ENTRE RIOS","lat":-31.3,"lon":-58.01667,"altura":38,"oaci":"SAAC"},{"nombre":"GUALEGUAYCHU AERO","provincia":"ENTRE RIOS","lat":-33.0,"lon":-58.61667,"altura":23,"oaci":"SAAG"},{"nombre":"PARANA AERO","provincia":"ENTRE RIOS","lat":-31.78333,"lon":-60.48333,"altura":78,"oaci":"SAAP"},{"nombre":"FORMOSA AERO","provincia":"FORMOSA","lat":-26.2,"lon":-58.23333,"altura":60,"oaci":"SARF"},{"nombre":"LAS LOMITAS","provincia":"FORMOSA","lat":-24.7,"lon":-60.58333,"altura":130,"oaci":"SATK"},{"nombre":"JUJUY AERO","provincia":"JUJUY","lat":-24.38333,"lon":-65.08333,"altura":905,"oaci":"SASJ"},{"nombre":"JUJUY UNIVERSIDAD NACIONAL","provincia":"JUJUY","lat":-24.16667,"lon":-65.18333,"altura":1302,"oaci":"-"},{"nombre":"LA QUIACA","provincia":"JUJUY","lat":-22.1,"lon":-65.6,"altura":3459,"oaci":"SASQ"},{"nombre":"GENERAL PICO AERO","provincia":"LA PAMPA","lat":-35.7,"lon":-63.75,"altura":145,"oaci":"SAZG"},{"nombre":"SANTA ROSA AERO","provincia":"LA PAMPA","lat":-36.56667,"lon":-64.26667,"altura":191,"oaci":"SAZR"},{"nombre":"VICTORICA","provincia":"LA PAMPA","lat":-36.21667,"lon":-65.43333,"altura":312,"oaci":"SAHV"},{"nombre":"CHAMICAL AERO","provincia":"LA RIOJA","lat":-30.36667,"lon":-66.28333,"altura":461,"oaci":"SACT"},{"nombre":"CHEPES","provincia":"LA RIOJA","lat":-31.33333,"lon":-66.6,"altura":658,"oaci":"SACP"},{"nombre":"CHILECITO AERO","provincia":"LA RIOJA","lat":-29.23333,"lon":-67.43333,"altura":947,"oaci":"SANO"},{"nombre":"LA RIOJA AERO","provincia":"LA RIOJA","lat":-29.38333,"lon":-66.81667,"altura":429,"oaci":"SANL"},{"nombre":"MALARGUE AERO","provincia":"MENDOZA","lat":-35.5,"lon":-69.58333,"altura":1425,"oaci":"SAMM"},{"nombre":"MENDOZA AERO","provincia":"MENDOZA","lat":-32.83333,"lon":-68.78333,"altura":704,"oaci":"SAME"},{"nombre":"MENDOZA OBSERVATORIO","provincia":"MENDOZA","lat":-32.88333,"lon":-68.85,"altura":827,"oaci":"SAMK"},{"nombre":"SAN CARLOS (MZA)","provincia":"MENDOZA","lat":-33.76667,"lon":-69.03333,"altura":940,"oaci":"SAMS"},{"nombre":"SAN MARTIN (MZA)","provincia":"MENDOZA","lat":-33.08333,"lon":-68.41667,"altura":653,"oaci":"SAMI"},{"nombre":"SAN RAFAEL AERO","provincia":"MENDOZA","lat":-34.58333,"lon":-68.4,"altura":748,"oaci":"SAMR"},{"nombre":"USPALLATA","provincia":"MENDOZA","lat":-32.6,"lon":-69.33333,"altura":1891,"oaci":"SAMU"},{"nombre":"BERNARDO DE IRIGOYEN AERO","provincia":"MISIONES","lat":-26.25,"lon":-53.65,"altura":815,"oaci":"SATI"},{"nombre":"IGUAZU AERO","provincia":"MISIONES","lat":-25.73333,"lon":-54.46667,"altura":270,"oaci":"SARI"},{"nombre":"OBERA AERO","provincia":"MISIONES","lat":-27.48333,"lon":-55.13333,"altura":303,"oaci":"SATO"},{"nombre":"POSADAS AERO","provincia":"MISIONES","lat":-27.36667,"lon":-55.96667,"altura":125,"oaci":"SARP"},{"nombre":"CHAPELCO AERO","provincia":"NEUQUEN","lat":-40.08333,"lon":-71.13333,"altura":779,"oaci":"SAZY"},{"nombre":"NEUQUEN AERO","provincia":"NEUQUEN","lat":-38.95,"lon":-68.13333,"altura":271,"oaci":"SAZN"},{"nombre":"BARILOCHE AERO","provincia":"RIO NEGRO","lat":-41.15,"lon":-71.16667,"altura":840,"oaci":"SAZS"},{"nombre":"CIPOLLETTI","provincia":"RIO NEGRO","lat":-38.95,"lon":-67.96667,"altura":265,"oaci":"SAHI"},{"nombre":"EL BOLSON AERO","provincia":"RIO NEGRO","lat":-41.96667,"lon":-71.51667,"altura":337,"oaci":"SAVB"},{"nombre":"MAQUINCHAO","provincia":"RIO NEGRO","lat":-41.25,"lon":-68.73333,"altura":888,"oaci":"SAVQ"},{"nombre":"RIO COLORADO","provincia":"RIO NEGRO","lat":-39.01667,"lon":-64.08333,"altura":79,"oaci":"SAZQ"},{"nombre":"SAN ANTONIO OESTE AERO","provincia":"RIO NEGRO","lat":-40.78333,"lon":-65.1,"altura":20,"oaci":"SAVN"},{"nombre":"VIEDMA AERO","provincia":"RIO NEGRO","lat":-40.85,"lon":-63.01667,"altura":7,"oaci":"SAVV"},{"nombre":"METAN","provincia":"SALTA","lat":-25.48333,"lon":-64.8,"altura":855,"oaci":"SASM"},{"nombre":"ORAN AERO","provincia":"SALTA","lat":-23.15,"lon":-64.31667,"altura":357,"oaci":"SASO"},{"nombre":"RIVADAVIA","provincia":"SALTA","lat":-24.16667,"lon":-62.9,"altura":205,"oaci":"SASR"},{"nombre":"SALTA AERO","provincia":"SALTA","lat":-24.85,"lon":-65.48333,"altura":1221,"oaci":"SASA"},{"nombre":"TARTAGAL AERO","provincia":"SALTA","lat":-22.65,"lon":-63.81667,"altura":450,"oaci":"SAST"},{"nombre":"JACHAL","provincia":"SAN JUAN","lat":-30.23333,"lon":-68.75,"altura":1175,"oaci":"SAMJ"},{"nombre":"SAN JUAN AERO","provincia":"SAN JUAN","lat":-31.56667,"lon":-68.41667,"altura":598,"oaci":"SANU"},{"nombre":"SAN LUIS AERO","provincia":"SAN LUIS","lat":-33.26667,"lon":-66.35,"altura":713,"oaci":"SAOU"},{"nombre":"SANTA ROSA DEL CONLARA AERO","provincia":"SAN LUIS","lat":-32.38333,"lon":-65.18333,"altura":620,"oaci":"SAOS"},{"nombre":"VILLA REYNOLDS AERO","provincia":"SAN LUIS","lat":-33.73333,"lon":-65.38333,"altura":486,"oaci":"SAOR"},{"nombre":"EL CALAFATE AERO","provincia":"SANTA CRUZ","lat":-50.26667,"lon":-72.05,"altura":204,"oaci":"SAWC"},{"nombre":"GOBERNADOR GREGORES AERO","provincia":"SANTA CRUZ","lat":-48.78333,"lon":-70.16667,"altura":358,"oaci":"SAWR"},{"nombre":"PERITO MORENO AERO","provincia":"SANTA CRUZ","lat":-46.51667,"lon":-71.01667,"altura":429,"oaci":"SAWP"},{"nombre":"PUERTO DESEADO AERO","provincia":"SANTA CRUZ","lat":-47.73333,"lon":-65.91667,"altura":80,"oaci":"SAWD"},{"nombre":"RIO GALLEGOS AERO","provincia":"SANTA CRUZ","lat":-51.61667,"lon":-69.28333,"altura":19,"oaci":"SAWG"},{"nombre":"SAN JULIAN AERO","provincia":"SANTA CRUZ","lat":-49.31667,"lon":-67.78333,"altura":62,"oaci":"SAWJ"},{"nombre":"SANTA CRUZ AERO","provincia":"SANTA CRUZ","lat":-50.01667,"lon":-68.56667,"altura":111,"oaci":"SAWU"},{"nombre":"CERES AERO","provincia":"SANTA FE","lat":-29.88333,"lon":-61.95,"altura":88,"oaci":"SANW"},{"nombre":"EL TREBOL","provincia":"SANTA FE","lat":-32.2,"lon":-61.66667,"altura":96,"oaci":"SAFT"},{"nombre":"RAFAELA AERO","provincia":"SANTA FE","lat":-31.26667,"lon":-61.5,"altura":99,"oaci":"SAFR"},{"nombre":"RECONQUISTA AERO","provincia":"SANTA FE","lat":-29.18333,"lon":-59.7,"altura":53,"oaci":"SATR"},{"nombre":"ROSARIO AERO","provincia":"SANTA FE","lat":-32.91667,"lon":-60.78333,"altura":25,"oaci":"SAAR"},{"nombre":"SANTA FE AERO","provincia":"SANTA FE","lat":-31.7,"lon":-60.81667,"altura":18,"oaci":"SAAV"},{"nombre":"SUNCHALES AERO","provincia":"SANTA FE","lat":-30.96667,"lon":-61.33333,"altura":92,"oaci":"SAFS"},{"nombre":"VENADO TUERTO","provincia":"SANTA FE","lat":-33.66667,"lon":-61.96667,"altura":112,"oaci":"SAFV"},{"nombre":"SANTIAGO DEL ESTERO AERO","provincia":"SANTIAGO DEL ESTERO","lat":-27.76667,"lon":-64.3,"altura":199,"oaci":"SANE"},{"nombre":"TERMAS DE RIO HONDO AERO","provincia":"SANTIAGO DEL ESTERO","lat":-27.48333,"lon":-64.93333,"altura":280,"oaci":"SANR"},{"nombre":"RIO GRANDE B.A.","provincia":"TIERRA DEL FUEGO","lat":-53.8,"lon":-67.75,"altura":22,"oaci":"SAWE"},{"nombre":"USHUAIA AERO","provincia":"TIERRA DEL FUEGO","lat":-54.8,"lon":-68.31667,"altura":57,"oaci":"SAWH"},{"nombre":"TUCUMAN AERO","provincia":"TUCUMAN","lat":-26.85,"lon":-65.1,"altura":450,"oaci":"SANT"}]